[
    {
        "name": "로제커피",
        "sub_name": "",
        "address": "부산광역시 금정구 금강로335번길",
        "lat": 35.2380401112753,
        "lon": 129.084264361273
    },
    {
        "name": "커핀그루나루",
        "sub_name": "롯데시네마오투점",
        "address": "부산광역시 금정구 중앙대로",
        "lat": 35.2283455135682,
        "lon": 129.089814761495
    },
    {
        "name": "빽다방부산대역점",
        "sub_name": "부산대역점",
        "address": "부산광역시 금정구 장전온천천로",
        "lat": 35.2295886565065,
        "lon": 129.088897622113
    },
    {
        "name": "이디야커피부산금강로점",
        "sub_name": "부산금강로점",
        "address": "부산광역시 동래구 온천장로",
        "lat": 35.2190812072356,
        "lon": 129.082573245832
    },
    {
        "name": "순",
        "sub_name": "",
        "address": "부산광역시 금정구 금강로321번길",
        "lat": 35.2367835563484,
        "lon": 129.085675874195
    },
    {
        "name": "카페베네부산장전동역점",
        "sub_name": "부산장전동역점",
        "address": "부산광역시 금정구 장전온천천로",
        "lat": 35.2337240043685,
        "lon": 129.08911767311
    },
    {
        "name": "두기보드게임카페",
        "sub_name": "",
        "address": "부산광역시 금정구 금강로",
        "lat": 35.2317864279427,
        "lon": 129.085060004458
    },
    {
        "name": "더벤티부산대점",
        "sub_name": "부산대점",
        "address": "부산광역시 금정구 부산대학로64번길",
        "lat": 35.2333729607558,
        "lon": 129.085048173107
    },
    {
        "name": "커피주시식스온천동역점",
        "sub_name": "동역점",
        "address": "부산광역시 동래구 중앙대로",
        "lat": 35.2213075406717,
        "lon": 129.08560153654
    },
    {
        "name": "앙꼬빈",
        "sub_name": "",
        "address": "부산광역시 금정구 오시게로12번길",
        "lat": 35.2186138654104,
        "lon": 129.086444385218
    },
    {
        "name": "보니시모",
        "sub_name": "",
        "address": "부산광역시 동래구 중앙대로",
        "lat": 35.2213075406717,
        "lon": 129.08560153654
    },
    {
        "name": "할리스커피",
        "sub_name": "부산대역점",
        "address": "부산광역시 금정구 부산대학로",
        "lat": 35.230803174811,
        "lon": 129.088155842901
    },
    {
        "name": "갤러리&사이폰커피",
        "sub_name": "",
        "address": "부산광역시 금정구 금샘로",
        "lat": 35.2286729303118,
        "lon": 129.077405708416
    },
    {
        "name": "누리꽃방",
        "sub_name": "",
        "address": "부산광역시 금정구 중앙대로1660번길",
        "lat": 35.2323415114896,
        "lon": 129.092493814201
    },
    {
        "name": "엔제리너스",
        "sub_name": "부산온천점",
        "address": "부산광역시 동래구 온천장로",
        "lat": 35.2194298554931,
        "lon": 129.082896414209
    },
    {
        "name": "바슬",
        "sub_name": "",
        "address": "부산광역시 금정구 동부곡로5번길",
        "lat": 35.2259875611847,
        "lon": 129.092408638998
    },
    {
        "name": "연운당",
        "sub_name": "",
        "address": "부산광역시 금정구 장전온천천로",
        "lat": 35.2352049528856,
        "lon": 129.088818868681
    },
    {
        "name": "뉴욕핫도그앤커피",
        "sub_name": "부산대학교점",
        "address": "부산광역시 금정구 부산대학로63번길",
        "lat": 35.232103685788,
        "lon": 129.083855791079
    },
    {
        "name": "엔커피",
        "sub_name": "",
        "address": "부산광역시 금정구 금강로279번길",
        "lat": 35.2356345406289,
        "lon": 129.083133719838
    },
    {
        "name": "아이스빈",
        "sub_name": "",
        "address": "부산광역시 금정구 중앙대로1719번길",
        "lat": 35.2373525613959,
        "lon": 129.089561692347
    },
    {
        "name": "각성힐링카페",
        "sub_name": "",
        "address": "부산광역시 동래구 금강로",
        "lat": 35.2223193507693,
        "lon": 129.08132007915
    },
    {
        "name": "디오티",
        "sub_name": "",
        "address": "부산광역시 금정구 금샘로",
        "lat": 35.2288947094794,
        "lon": 129.076793459368
    },
    {
        "name": "커피가사랑한남자",
        "sub_name": "",
        "address": "부산광역시 금정구 장전온천천로79번길",
        "lat": 35.2321782665795,
        "lon": 129.088602651734
    },
    {
        "name": "요거프레소장전역점",
        "sub_name": "장전역점",
        "address": "부산광역시 금정구 금정로149번길",
        "lat": 35.2378887076113,
        "lon": 129.087074910222
    },
    {
        "name": "타인커피숍",
        "sub_name": "",
        "address": "부산광역시 동래구 금강로",
        "lat": 35.2198346786549,
        "lon": 129.080968581464
    },
    {
        "name": "어벤더치부산대북문점",
        "sub_name": "부산대북문점",
        "address": "부산광역시 금정구 수림로85번길",
        "lat": 35.2375025312006,
        "lon": 129.082894877192
    },
    {
        "name": "커피엔스타",
        "sub_name": "",
        "address": "부산광역시 금정구 금정로60번길",
        "lat": 35.2295200830825,
        "lon": 129.087501554196
    },
    {
        "name": "티원원",
        "sub_name": "",
        "address": "부산광역시 금정구 장전온천천로",
        "lat": 35.229629470232,
        "lon": 129.089370542223
    },
    {
        "name": "마리웨일마카롱",
        "sub_name": "부산대점",
        "address": "부산광역시 금정구 금강로",
        "lat": 35.2305002678921,
        "lon": 129.084746268209
    },
    {
        "name": "유달리",
        "sub_name": "",
        "address": "부산광역시 금정구 부산대학로64번길",
        "lat": 35.2322775445984,
        "lon": 129.084572182081
    },
    {
        "name": "로바니아",
        "sub_name": "",
        "address": "부산광역시 금정구 장전온천천로",
        "lat": 35.229629470232,
        "lon": 129.089370542223
    },
    {
        "name": "쿠즈베리",
        "sub_name": "",
        "address": "부산광역시 금정구 장전온천천로",
        "lat": 35.229629470232,
        "lon": 129.089370542223
    },
    {
        "name": "카페더트리&BAN.D.BUGS",
        "sub_name": "",
        "address": "부산광역시 금정구 장전온천천로",
        "lat": 35.229629470232,
        "lon": 129.089370542223
    },
    {
        "name": "커피갤러리",
        "sub_name": "",
        "address": "부산광역시 금정구 금강로",
        "lat": 35.2303002150514,
        "lon": 129.081920317048
    },
    {
        "name": "아르스커피",
        "sub_name": "",
        "address": "부산광역시 금정구 장전온천천로",
        "lat": 35.229629470232,
        "lon": 129.089370542223
    },
    {
        "name": "헬로멜로옐로",
        "sub_name": "",
        "address": "부산광역시 금정구 금정로",
        "lat": 35.2287468261962,
        "lon": 129.086282847877
    },
    {
        "name": "노스커피",
        "sub_name": "본점",
        "address": "부산광역시 금정구 수림로85번길",
        "lat": 35.2375537567668,
        "lon": 129.083214167623
    },
    {
        "name": "이디야커피",
        "sub_name": "금강로점",
        "address": "부산광역시 동래구 온천장로",
        "lat": 35.2195321120205,
        "lon": 129.08355681883
    },
    {
        "name": "자스민커피",
        "sub_name": "",
        "address": "부산광역시 금정구 금정로68번길",
        "lat": 35.2302754993617,
        "lon": 129.08869807424
    },
    {
        "name": "십이월32일",
        "sub_name": "",
        "address": "부산광역시 금정구 식물원로",
        "lat": 35.2252692469278,
        "lon": 129.082062245008
    },
    {
        "name": "소울메이트",
        "sub_name": "",
        "address": "부산광역시 금정구 장전로12번길",
        "lat": 35.2287853156826,
        "lon": 129.088019045953
    },
    {
        "name": "노스커피",
        "sub_name": "본점",
        "address": "부산광역시 금정구 오시게로",
        "lat": 35.21959487281,
        "lon": 129.086611236106
    },
    {
        "name": "카페더찬",
        "sub_name": "",
        "address": "부산광역시 금정구 금강로279번길",
        "lat": 35.2345463282713,
        "lon": 129.083866310452
    },
    {
        "name": "달콤",
        "sub_name": "커피부산대점",
        "address": "부산광역시 금정구 금정로60번길",
        "lat": 35.2296029736291,
        "lon": 129.087304922081
    },
    {
        "name": "엠제이커피로스터리",
        "sub_name": "",
        "address": "부산광역시 금정구 금정로",
        "lat": 35.2360551823655,
        "lon": 129.087489898988
    },
    {
        "name": "스타벅스",
        "sub_name": "온천장역DT점",
        "address": "부산광역시 금정구 식물원로",
        "lat": 35.2239490044015,
        "lon": 129.086559430123
    },
    {
        "name": "앤커피숍",
        "sub_name": "",
        "address": "부산광역시 금정구 금정로",
        "lat": 35.2379373556683,
        "lon": 129.08767982139
    },
    {
        "name": "카페라보엠",
        "sub_name": "라보엠",
        "address": "부산광역시 금정구 중앙대로1685번길",
        "lat": 35.234879325101,
        "lon": 129.089946092443
    },
    {
        "name": "쥬스식스",
        "sub_name": "부산온천장역점",
        "address": "부산광역시 동래구 중앙대로",
        "lat": 35.2213075406717,
        "lon": 129.08560153654
    },
    {
        "name": "럭키",
        "sub_name": "",
        "address": "부산광역시 금정구 중앙대로",
        "lat": 35.2337957267596,
        "lon": 129.092161759267
    },
    {
        "name": "엉클김",
        "sub_name": "",
        "address": "부산광역시 금정구 부산대학로64번길",
        "lat": 35.2354115557518,
        "lon": 129.085888303075
    },
    {
        "name": "디초콜릿커피앤",
        "sub_name": "드부산온천장점",
        "address": "부산광역시 동래구 중앙대로",
        "lat": 35.2213075406717,
        "lon": 129.08560153654
    },
    {
        "name": "프리블릭",
        "sub_name": "",
        "address": "부산광역시 금정구 금강로279번길",
        "lat": 35.2335028799051,
        "lon": 129.084632435632
    },
    {
        "name": "컴포즈커피",
        "sub_name": "온천장점",
        "address": "부산광역시 동래구 중앙대로",
        "lat": 35.2213075406717,
        "lon": 129.08560153654
    },
    {
        "name": "헤이도기",
        "sub_name": "",
        "address": "부산광역시 금정구 중앙대로",
        "lat": 35.2349228084203,
        "lon": 129.092121936051
    },
    {
        "name": "셀렉토커피",
        "sub_name": "부산온천장역점",
        "address": "부산광역시 금정구 오시게로42번길",
        "lat": 35.2211717425264,
        "lon": 129.087675765069
    },
    {
        "name": "더리터",
        "sub_name": "장전점",
        "address": "부산광역시 금정구 금강로335번길",
        "lat": 35.237821298192,
        "lon": 129.085546877781
    },
    {
        "name": "카페페르마타(CafeFermata)",
        "sub_name": "페르마타",
        "address": "부산광역시 금정구 가마실로",
        "lat": 35.2249613043213,
        "lon": 129.091263447271
    },
    {
        "name": "카페마운틴",
        "sub_name": "마운틴",
        "address": "부산광역시 금정구 부산대학로63번길",
        "lat": 35.2322570003316,
        "lon": 129.083846844508
    },
    {
        "name": "카페비윤",
        "sub_name": "",
        "address": "부산광역시 금정구 금정로52번길",
        "lat": 35.2290670789075,
        "lon": 129.087759158406
    },
    {
        "name": "오캄라비에",
        "sub_name": "",
        "address": "부산광역시 금정구 부곡로142번길",
        "lat": 35.2285042743981,
        "lon": 129.093200358479
    },
    {
        "name": "블루그로토",
        "sub_name": "",
        "address": "부산광역시 금정구 장전온천천로73번길",
        "lat": 35.2317862508997,
        "lon": 129.088092070141
    },
    {
        "name": "커피베이",
        "sub_name": "부산대점",
        "address": "부산광역시 금정구 부산대학로63번길",
        "lat": 35.2322570003316,
        "lon": 129.083846844508
    },
    {
        "name": "파스쿠찌",
        "sub_name": "부산온천장점",
        "address": "부산광역시 동래구 금강공원로20번길",
        "lat": 35.219548887521,
        "lon": 129.082689297254
    },
    {
        "name": "카페라온",
        "sub_name": "",
        "address": "부산광역시 금정구 장전온천천로113번길",
        "lat": 35.2351327524889,
        "lon": 129.088828890035
    },
    {
        "name": "Cafebouquet",
        "sub_name": "",
        "address": "부산광역시 금정구 장전온천천로",
        "lat": 35.2337240043685,
        "lon": 129.08911767311
    },
    {
        "name": "Megacoffee",
        "sub_name": "",
        "address": "부산광역시 금정구 중앙대로1719번길",
        "lat": 35.237667322161,
        "lon": 129.090642583074
    },
    {
        "name": "스테이히얼투데이",
        "sub_name": "",
        "address": "부산광역시 금정구 장전로20번길",
        "lat": 35.2292437477715,
        "lon": 129.087157318954
    },
    {
        "name": "모먼트랩",
        "sub_name": "",
        "address": "부산광역시 금정구 금강로",
        "lat": 35.2306028079654,
        "lon": 129.085373812115
    },
    {
        "name": "예술공간DOT",
        "sub_name": "",
        "address": "부산광역시 금정구 금샘로",
        "lat": 35.2288947094794,
        "lon": 129.076793459368
    },
    {
        "name": "엔스낵",
        "sub_name": "",
        "address": "부산광역시 동래구 온천장로107번길",
        "lat": 35.2211711803399,
        "lon": 129.082710843008
    },
    {
        "name": "뉴욕보틀",
        "sub_name": "",
        "address": "부산광역시 금정구 금정로68번길",
        "lat": 35.2304457527538,
        "lon": 129.088810204464
    },
    {
        "name": "할리스커피",
        "sub_name": "금강식물원점디자인WK",
        "address": "부산광역시 금정구 금샘로",
        "lat": 35.2279373240948,
        "lon": 129.078022142748
    },
    {
        "name": "라프",
        "sub_name": "",
        "address": "부산광역시 금정구 장전로20번길",
        "lat": 35.2291177671145,
        "lon": 129.087133667573
    },
    {
        "name": "오피피에이",
        "sub_name": "",
        "address": "부산광역시 금정구 식물원로",
        "lat": 35.2274206693418,
        "lon": 129.079355500163
    },
    {
        "name": "쓰리라벨즈",
        "sub_name": "",
        "address": "부산광역시 금정구 수림로85번길",
        "lat": 35.2372209746357,
        "lon": 129.083132837601
    },
    {
        "name": "팔공티",
        "sub_name": "부산대점",
        "address": "부산광역시 금정구 금정로60번길",
        "lat": 35.2295576437436,
        "lon": 129.088336949744
    },
    {
        "name": "도르샐러드",
        "sub_name": "",
        "address": "부산광역시 금정구 부산대학로",
        "lat": 35.2314092970357,
        "lon": 129.08791126555
    },
    {
        "name": "안데스커피",
        "sub_name": "",
        "address": "부산광역시 금정구 동현로",
        "lat": 35.2217473609655,
        "lon": 129.095811896817
    },
    {
        "name": "네오",
        "sub_name": "",
        "address": "부산광역시 금정구 부산대학로",
        "lat": 35.230803174811,
        "lon": 129.088155842901
    },
    {
        "name": "라틴커피용품소매",
        "sub_name": "",
        "address": "부산광역시 동래구 온천장로",
        "lat": 35.221891542631,
        "lon": 129.084807451119
    },
    {
        "name": "쿵푸밀크티",
        "sub_name": "",
        "address": "부산광역시 금정구 부산대학로63번길",
        "lat": 35.2306696800443,
        "lon": 129.08394657406
    },
    {
        "name": "오직그대만",
        "sub_name": "",
        "address": "부산광역시 금정구 금강로",
        "lat": 35.2327750687667,
        "lon": 129.085380774069
    },
    {
        "name": "크로체",
        "sub_name": "",
        "address": "부산광역시 금정구 금정로",
        "lat": 35.2329024140501,
        "lon": 129.087261060014
    },
    {
        "name": "카페해뮴",
        "sub_name": "",
        "address": "부산광역시 금정구 부산대학로",
        "lat": 35.230803174811,
        "lon": 129.088155842901
    },
    {
        "name": "컴포즈커피",
        "sub_name": "산성터널점",
        "address": "부산광역시 금정구 수림로",
        "lat": 35.2398333421238,
        "lon": 129.086331780801
    },
    {
        "name": "다짐스터디카페",
        "sub_name": "장전점",
        "address": "부산광역시 금정구 금강로335번길",
        "lat": 35.2377968214424,
        "lon": 129.085260900924
    },
    {
        "name": "엔씨커피",
        "sub_name": "",
        "address": "부산광역시 금정구 부곡로",
        "lat": 35.2192536111063,
        "lon": 129.087474428601
    },
    {
        "name": "컵넛",
        "sub_name": "",
        "address": "부산광역시 금정구 금정로149번안길",
        "lat": 35.2372855473999,
        "lon": 129.086989956659
    },
    {
        "name": "해피버드데이",
        "sub_name": "",
        "address": "부산광역시 금정구 부산대학로63번길",
        "lat": 35.2306696800443,
        "lon": 129.08394657406
    },
    {
        "name": "카페드팽",
        "sub_name": "2호점",
        "address": "부산광역시 금정구 금강로",
        "lat": 35.2326090462979,
        "lon": 129.084796311717
    },
    {
        "name": "이디야커피",
        "sub_name": "부산금정초교점",
        "address": "부산광역시 금정구 식물원로44번길",
        "lat": 35.2269585039128,
        "lon": 129.083666527373
    },
    {
        "name": "우와한날",
        "sub_name": "",
        "address": "부산광역시 금정구 식물원로",
        "lat": 35.2234226182975,
        "lon": 129.086958844548
    },
    {
        "name": "어스베이킹",
        "sub_name": "",
        "address": "부산광역시 금정구 장전로18번길",
        "lat": 35.229006753323,
        "lon": 129.08745076264
    },
    {
        "name": "커피갤럽",
        "sub_name": "",
        "address": "부산광역시 금정구 금강로",
        "lat": 35.2299069049725,
        "lon": 129.084573587429
    },
    {
        "name": "글래드커피",
        "sub_name": "장전역점",
        "address": "부산광역시 금정구 수림로",
        "lat": 35.2391357723255,
        "lon": 129.088728575619
    },
    {
        "name": "화이트펜슬스터디카페",
        "sub_name": "부산대점",
        "address": "부산광역시 금정구 금정로60번길",
        "lat": 35.2295200830825,
        "lon": 129.087501554196
    },
    {
        "name": "번아웃커피유닛",
        "sub_name": "",
        "address": "부산광역시 금정구 부산대학로63번길",
        "lat": 35.2297762404193,
        "lon": 129.08406651612
    },
    {
        "name": "카페",
        "sub_name": "묘한다방",
        "address": "부산광역시 금정구 금강로335번길",
        "lat": 35.2382503602583,
        "lon": 129.085948113493
    },
    {
        "name": "카페",
        "sub_name": "멍샵&",
        "address": "부산광역시 금정구 서부곡로",
        "lat": 35.2261606803603,
        "lon": 129.090202976457
    },
    {
        "name": "히컵커피",
        "sub_name": "",
        "address": "부산광역시 금정구 수림로49번길",
        "lat": 35.238097972804,
        "lon": 129.086857970456
    },
    {
        "name": "영미카페",
        "sub_name": "",
        "address": "부산광역시 금정구 중앙대로",
        "lat": 35.2364514026721,
        "lon": 129.091538175247
    },
    {
        "name": "카페",
        "sub_name": "마일로장전래미안점",
        "address": "부산광역시 금정구 금정로",
        "lat": 35.2277235583279,
        "lon": 129.086807484009
    },
    {
        "name": "웍스커피",
        "sub_name": "",
        "address": "부산광역시 금정구 금정로",
        "lat": 35.2303985183141,
        "lon": 129.086041210839
    },
    {
        "name": "원더러스트",
        "sub_name": "",
        "address": "부산광역시 금정구 장전온천천로",
        "lat": 35.2275729713322,
        "lon": 129.088519164672
    },
    {
        "name": "이루리스터디",
        "sub_name": "온천장역점",
        "address": "부산광역시 금정구 시실로",
        "lat": 35.2178444853871,
        "lon": 129.085797067822
    },
    {
        "name": "초심스터디카페",
        "sub_name": "부산대점",
        "address": "부산광역시 금정구 부산대학로",
        "lat": 35.2311678506806,
        "lon": 129.085688936787
    },
    {
        "name": "디벨롭커피",
        "sub_name": "",
        "address": "부산광역시 금정구 중앙대로",
        "lat": 35.2297624965692,
        "lon": 129.09061367932
    },
    {
        "name": "구디너프",
        "sub_name": "",
        "address": "부산광역시 금정구 금정로52번길",
        "lat": 35.2291243132681,
        "lon": 129.087408389745
    },
    {
        "name": "하이",
        "sub_name": "오커피",
        "address": "부산광역시 금정구 부산대학로63번길",
        "lat": 35.2305240993513,
        "lon": 129.084098435848
    },
    {
        "name": "해피데이",
        "sub_name": "",
        "address": "부산광역시 금정구 수림로",
        "lat": 35.2398030823007,
        "lon": 129.087693744773
    },
    {
        "name": "나우잇",
        "sub_name": "",
        "address": "부산광역시 금정구 금강로",
        "lat": 35.2323854018896,
        "lon": 129.084606575167
    },
    {
        "name": "텐퍼센트",
        "sub_name": "부산대학교점",
        "address": "부산광역시 금정구 금정로",
        "lat": 35.2309956659323,
        "lon": 129.086796193171
    },
    {
        "name": "몽에그",
        "sub_name": "",
        "address": "부산광역시 금정구 금정로60번길",
        "lat": 35.2293018307551,
        "lon": 129.088718023012
    },
    {
        "name": "어리브",
        "sub_name": "",
        "address": "부산광역시 금정구 중앙대로",
        "lat": 35.2284352541228,
        "lon": 129.090859564775
    },
    {
        "name": "커피노래",
        "sub_name": "",
        "address": "부산광역시 금정구 오시게로54번길",
        "lat": 35.2218734791544,
        "lon": 129.08882750733
    },
    {
        "name": "보노커피",
        "sub_name": "",
        "address": "부산광역시 금정구 금정로",
        "lat": 35.2303985183141,
        "lon": 129.086041210839
    },
    {
        "name": "카페",
        "sub_name": "오시게",
        "address": "부산광역시 금정구 오시게로42번길",
        "lat": 35.2211717425264,
        "lon": 129.087675765069
    },
    {
        "name": "부산커피",
        "sub_name": "",
        "address": "부산광역시 금정구 장전온천천로",
        "lat": 35.2333007040309,
        "lon": 129.089079057291
    },
    {
        "name": "메가커피",
        "sub_name": "장전역점",
        "address": "부산광역시 금정구 중앙대로1685번길",
        "lat": 35.2367088028568,
        "lon": 129.089981553201
    },
    {
        "name": "당신의일상",
        "sub_name": "",
        "address": "부산광역시 금정구 부산대학로64번길",
        "lat": 35.2364844618576,
        "lon": 129.085858657187
    },
    {
        "name": "이강커피",
        "sub_name": "",
        "address": "부산광역시 금정구 금정로",
        "lat": 35.2344352644827,
        "lon": 129.087204611192
    },
    {
        "name": "그라찌에",
        "sub_name": "부산대학교점",
        "address": "부산광역시 금정구 부산대학로63번길",
        "lat": 35.2322570003316,
        "lon": 129.083846844508
    },
    {
        "name": "메가커피",
        "sub_name": "허심청점",
        "address": "부산광역시 동래구 온천장로",
        "lat": 35.221891542631,
        "lon": 129.084807451119
    },
    {
        "name": "리프밀",
        "sub_name": "",
        "address": "부산광역시 금정구 장전로",
        "lat": 35.22872629161,
        "lon": 129.085557541601
    },
    {
        "name": "커피맘스",
        "sub_name": "",
        "address": "부산광역시 금정구 장전온천천로",
        "lat": 35.229629470232,
        "lon": 129.089370542223
    },
    {
        "name": "가비방커피",
        "sub_name": "",
        "address": "부산광역시 금정구 장전온천천로",
        "lat": 35.229629470232,
        "lon": 129.089370542223
    },
    {
        "name": "텐퍼센트커피",
        "sub_name": "",
        "address": "부산광역시 동래구 중앙대로",
        "lat": 35.2213075406717,
        "lon": 129.08560153654
    },
    {
        "name": "카페T",
        "sub_name": "",
        "address": "부산광역시 금정구 장전온천천로",
        "lat": 35.2286440019366,
        "lon": 129.088698249678
    },
    {
        "name": "그날",
        "sub_name": "",
        "address": "부산광역시 금정구 금정로52번길",
        "lat": 35.2289077411599,
        "lon": 129.088438124214
    },
    {
        "name": "달디1031",
        "sub_name": "",
        "address": "부산광역시 금정구 수림로85번길",
        "lat": 35.2379419914953,
        "lon": 129.083142423466
    },
    {
        "name": "커피가사랑한남자원두숍",
        "sub_name": "",
        "address": "부산광역시 금정구 장전로12번길",
        "lat": 35.228327543134,
        "lon": 129.087804214105
    },
    {
        "name": "아르첼라",
        "sub_name": "",
        "address": "부산광역시 금정구 금샘로",
        "lat": 35.2276394145444,
        "lon": 129.078073128239
    },
    {
        "name": "마스커피랩",
        "sub_name": "",
        "address": "부산광역시 금정구 금강로",
        "lat": 35.2322829149026,
        "lon": 129.084978729008
    },
    {
        "name": "옐로우빈",
        "sub_name": "",
        "address": "부산광역시 금정구 오시게로",
        "lat": 35.2194692860813,
        "lon": 129.08654365765
    },
    {
        "name": "CAFE051",
        "sub_name": "온천장역점",
        "address": "부산광역시 동래구 중앙대로",
        "lat": 35.2213075406717,
        "lon": 129.08560153654
    },
    {
        "name": "무무추",
        "sub_name": "부산대점",
        "address": "부산광역시 금정구 부산대학로",
        "lat": 35.230803174811,
        "lon": 129.088155842901
    },
    {
        "name": "컴포즈커피",
        "sub_name": "부산대북문점",
        "address": "부산광역시 금정구 금강로335번길",
        "lat": 35.2377318092711,
        "lon": 129.084469002728
    },
    {
        "name": "피포스",
        "sub_name": "",
        "address": "부산광역시 금정구 장전온천천로",
        "lat": 35.2347888864424,
        "lon": 129.088978100974
    },
    {
        "name": "자스민커피",
        "sub_name": "문창점",
        "address": "부산광역시 금정구 금강로279번길",
        "lat": 35.2331103119272,
        "lon": 129.085187492763
    },
    {
        "name": "카페누베",
        "sub_name": "",
        "address": "부산광역시 금정구 금정로",
        "lat": 35.2319998237437,
        "lon": 129.086392125796
    },
    {
        "name": "컴포즈",
        "sub_name": "",
        "address": "부산광역시 금정구 수림로",
        "lat": 35.2398333421238,
        "lon": 129.086331780801
    },
    {
        "name": "텐퍼센트커피",
        "sub_name": "",
        "address": "부산광역시 금정구 중앙대로",
        "lat": 35.2285609369944,
        "lon": 129.090916173636
    },
    {
        "name": "카페",
        "sub_name": "125",
        "address": "부산광역시 금정구 온천장로125번길",
        "lat": 35.2237981822316,
        "lon": 129.083273000708
    },
    {
        "name": "번아웃커피",
        "sub_name": "부산대역점",
        "address": "부산광역시 금정구 장전온천천로",
        "lat": 35.2309501677576,
        "lon": 129.088849900965
    },
    {
        "name": "테스투치네",
        "sub_name": "",
        "address": "부산광역시 금정구 장전온천천로",
        "lat": 35.229629470232,
        "lon": 129.089370542223
    },
    {
        "name": "온니케이크",
        "sub_name": "",
        "address": "부산광역시 금정구 장전온천천로",
        "lat": 35.229629470232,
        "lon": 129.089370542223
    },
    {
        "name": "카페",
        "sub_name": "051장전SK점",
        "address": "부산광역시 금정구 금강로",
        "lat": 35.2242177019891,
        "lon": 129.081718743262
    },
    {
        "name": "달콤",
        "sub_name": "2017디저트카페",
        "address": "부산광역시 동래구 중앙대로",
        "lat": 35.2213075406717,
        "lon": 129.08560153654
    },
    {
        "name": "컴포즈커피",
        "sub_name": "부곡점",
        "address": "부산광역시 금정구 부곡로",
        "lat": 35.2206426872164,
        "lon": 129.088371698209
    },
    {
        "name": "더리터",
        "sub_name": "부곡점",
        "address": "부산광역시 금정구 서부곡로",
        "lat": 35.2259771651283,
        "lon": 129.091562657449
    },
    {
        "name": "모모스커피",
        "sub_name": "",
        "address": "부산광역시 금정구 장전온천천로",
        "lat": 35.229629470232,
        "lon": 129.089370542223
    },
    {
        "name": "19TEA",
        "sub_name": "",
        "address": "부산광역시 금정구 부산대학로",
        "lat": 35.231413603351,
        "lon": 129.084417869164
    },
    {
        "name": "모티커피",
        "sub_name": "",
        "address": "부산광역시 동래구 온천장로125번길",
        "lat": 35.224024016971,
        "lon": 129.082210484972
    },
    {
        "name": "카페노리",
        "sub_name": "",
        "address": "부산광역시 금정구 서동로",
        "lat": 35.22135661707,
        "lon": 129.091171253175
    },
    {
        "name": "카페",
        "sub_name": "베이커리",
        "address": "부산광역시 동래구 온천장로107번길",
        "lat": 35.2211711803399,
        "lon": 129.082710843008
    },
    {
        "name": "카페",
        "sub_name": "이지그린",
        "address": "부산광역시 금정구 금샘로",
        "lat": 35.2276394145444,
        "lon": 129.078073128239
    },
    {
        "name": "카페",
        "sub_name": "콩이네",
        "address": "부산광역시 금정구 금강로",
        "lat": 35.230291104146,
        "lon": 129.081931181646
    },
    {
        "name": "손수",
        "sub_name": "",
        "address": "부산광역시 금정구 식물원로",
        "lat": 35.2234226182975,
        "lon": 129.086958844548
    },
    {
        "name": "고고커피",
        "sub_name": "",
        "address": "부산광역시 금정구 장전온천천로",
        "lat": 35.229629470232,
        "lon": 129.089370542223
    },
    {
        "name": "더팜471",
        "sub_name": "",
        "address": "부산광역시 금정구 장전온천천로",
        "lat": 35.229629470232,
        "lon": 129.089370542223
    },
    {
        "name": "바첼",
        "sub_name": "",
        "address": "부산광역시 금정구 장전온천천로",
        "lat": 35.229629470232,
        "lon": 129.089370542223
    },
    {
        "name": "봄봄테이크아웃",
        "sub_name": "",
        "address": "부산광역시 금정구 금정로60번길",
        "lat": 35.2296979685526,
        "lon": 129.0877675793
    },
    {
        "name": "금샘협동조합",
        "sub_name": "",
        "address": "부산광역시 금정구 장전온천천로",
        "lat": 35.229629470232,
        "lon": 129.089370542223
    },
    {
        "name": "카페",
        "sub_name": "별숲향기",
        "address": "부산광역시 금정구 금샘로",
        "lat": 35.2310457984876,
        "lon": 129.076140771415
    },
    {
        "name": "순림샘하꼬방",
        "sub_name": "장전점",
        "address": "부산광역시 금정구 장전온천천로",
        "lat": 35.229629470232,
        "lon": 129.089370542223
    },
    {
        "name": "타이거슈가부산대",
        "sub_name": "",
        "address": "부산광역시 금정구 금정로",
        "lat": 35.2308796841133,
        "lon": 129.086662818799
    },
    {
        "name": "앙떼떼케이크",
        "sub_name": "",
        "address": "부산광역시 금정구 금정로68번길",
        "lat": 35.2303708298373,
        "lon": 129.087117426997
    },
    {
        "name": "어벤더치커피",
        "sub_name": "",
        "address": "부산광역시 금정구 장전온천천로",
        "lat": 35.2291270321215,
        "lon": 129.089111161953
    },
    {
        "name": "떳다방",
        "sub_name": "",
        "address": "부산광역시 동래구 금강로",
        "lat": 35.2223193507693,
        "lon": 129.08132007915
    },
    {
        "name": "프루티쟈뎅",
        "sub_name": "",
        "address": "부산광역시 금정구 부곡로156번길",
        "lat": 35.229830529049,
        "lon": 129.09306435262
    },
    {
        "name": "행복당",
        "sub_name": "",
        "address": "부산광역시 금정구 금정로68번길",
        "lat": 35.2307490676683,
        "lon": 129.087155429656
    },
    {
        "name": "바스타커피",
        "sub_name": "부산대북문점",
        "address": "부산광역시 금정구 수림로81번길",
        "lat": 35.2377568206262,
        "lon": 129.083689289749
    },
    {
        "name": "그라찌에",
        "sub_name": "대동대점",
        "address": "부산광역시 금정구 동부곡로27번길",
        "lat": 35.2291469789759,
        "lon": 129.095889414498
    },
    {
        "name": "별의별버블티",
        "sub_name": "",
        "address": "부산광역시 금정구 부산대학로64번길",
        "lat": 35.2322495221557,
        "lon": 129.084681667291
    },
    {
        "name": "하삼동커피",
        "sub_name": "부산대점",
        "address": "부산광역시 금정구 금정로68번길",
        "lat": 35.2303637243547,
        "lon": 129.087908292584
    },
    {
        "name": "에스플랜스터티카페",
        "sub_name": "부산대점",
        "address": "부산광역시 금정구 부산대학로",
        "lat": 35.2318270072831,
        "lon": 129.084555199773
    },
    {
        "name": "파나카",
        "sub_name": "",
        "address": "부산광역시 금정구 금정로",
        "lat": 35.2329024140501,
        "lon": 129.087261060014
    },
    {
        "name": "카페씨유",
        "sub_name": "",
        "address": "부산광역시 금정구 장전온천천로",
        "lat": 35.2327072494235,
        "lon": 129.088917323195
    },
    {
        "name": "카페",
        "sub_name": "더파고스터디",
        "address": "부산광역시 금정구 오시게로",
        "lat": 35.2194692860813,
        "lon": 129.08654365765
    },
    {
        "name": "텐퍼센트커피",
        "sub_name": "장전점",
        "address": "부산광역시 금정구 수림로71번길",
        "lat": 35.2379628909133,
        "lon": 129.084834636198
    },
    {
        "name": "유유당산성요",
        "sub_name": "",
        "address": "부산광역시 금정구 장전온천천로",
        "lat": 35.2278973300976,
        "lon": 129.088534482078
    },
    {
        "name": "알앤407커피",
        "sub_name": "",
        "address": "부산광역시 금정구 금강로",
        "lat": 35.2249545866868,
        "lon": 129.081970189017
    },
    {
        "name": "11월29일",
        "sub_name": "",
        "address": "부산광역시 금정구 장전로20번길",
        "lat": 35.2293481507846,
        "lon": 129.087576157821
    },
    {
        "name": "새티스팩토리",
        "sub_name": "",
        "address": "부산광역시 금정구 금강로",
        "lat": 35.2393108028269,
        "lon": 129.086302839157
    },
    {
        "name": "스웨터",
        "sub_name": "",
        "address": "부산광역시 금정구 장전로20번길",
        "lat": 35.2291177671145,
        "lon": 129.087133667573
    },
    {
        "name": "쿠스케",
        "sub_name": "",
        "address": "부산광역시 금정구 부산대학로49번길",
        "lat": 35.2298239710893,
        "lon": 129.085780887679
    },
    {
        "name": "더리터",
        "sub_name": "",
        "address": "부산광역시 동래구 온천장로",
        "lat": 35.2183066025616,
        "lon": 129.082508040452
    },
    {
        "name": "노스부산대사거리점",
        "sub_name": "",
        "address": "부산광역시 금정구 금정로",
        "lat": 35.2298629239512,
        "lon": 129.086462507356
    },
    {
        "name": "에이바우트알앤씨",
        "sub_name": "",
        "address": "부산광역시 금정구 부산대학로49번길",
        "lat": 35.2309306625628,
        "lon": 129.08600436027
    },
    {
        "name": "청솔로9",
        "sub_name": "부산대점",
        "address": "부산광역시 금정구 금강로",
        "lat": 35.2307171636918,
        "lon": 129.08468324169
    },
    {
        "name": "위치커피부산금정초점",
        "sub_name": "",
        "address": "부산광역시 금정구 장전로",
        "lat": 35.2285395853522,
        "lon": 129.085269436386
    },
    {
        "name": "고품격커피공장",
        "sub_name": "온천점",
        "address": "부산광역시 동래구 중앙대로1473번길",
        "lat": 35.2175229849892,
        "lon": 129.082442716849
    },
    {
        "name": "모모캐롯",
        "sub_name": "",
        "address": "부산광역시 금정구 금정로52번길",
        "lat": 35.22877106892,
        "lon": 129.088601079039
    },
    {
        "name": "카페",
        "sub_name": "051부산대북문점",
        "address": "부산광역시 금정구 금강로279번길",
        "lat": 35.2340334888419,
        "lon": 129.083760614017
    },
    {
        "name": "카페",
        "sub_name": "단백찜질",
        "address": "부산광역시 금정구 부곡로",
        "lat": 35.2177022983333,
        "lon": 129.086575027949
    },
    {
        "name": "사공칠랩",
        "sub_name": "",
        "address": "부산광역시 금정구 금강로",
        "lat": 35.2249545866868,
        "lon": 129.081970189017
    },
    {
        "name": "플라워까페",
        "sub_name": "",
        "address": "부산광역시 금정구 금강로335번길",
        "lat": 35.2380481423471,
        "lon": 129.080342250661
    },
    {
        "name": "카페안길",
        "sub_name": "",
        "address": "부산광역시 금정구 장전로12번길",
        "lat": 35.2283982627952,
        "lon": 129.087958952181
    },
    {
        "name": "카페씨쓰리",
        "sub_name": "",
        "address": "부산광역시 금정구 식물원로39번길",
        "lat": 35.2241066468612,
        "lon": 129.084057015416
    },
    {
        "name": "샵인",
        "sub_name": "",
        "address": "부산광역시 금정구 금강로",
        "lat": 35.2288301998809,
        "lon": 129.084020975663
    },
    {
        "name": "하이오",
        "sub_name": "",
        "address": "부산광역시 동래구 중앙대로1473번길",
        "lat": 35.2181342801719,
        "lon": 129.082626575519
    },
    {
        "name": "샐프레소",
        "sub_name": "금정점",
        "address": "부산광역시 금정구 식물원로44번길",
        "lat": 35.2269585039128,
        "lon": 129.083666527373
    },
    {
        "name": "엔카페",
        "sub_name": "",
        "address": "부산광역시 동래구 온천장로107번길",
        "lat": 35.2211711803399,
        "lon": 129.082710843008
    },
    {
        "name": "도피오",
        "sub_name": "홈플러스동래점",
        "address": "부산광역시 동래구 중앙대로",
        "lat": 35.2213075406717,
        "lon": 129.08560153654
    },
    {
        "name": "세별커피숍",
        "sub_name": "",
        "address": "부산광역시 동래구 금강공원로20번길",
        "lat": 35.2190743549141,
        "lon": 129.082331505851
    },
    {
        "name": "천일",
        "sub_name": "",
        "address": "부산광역시 금정구 부곡로",
        "lat": 35.2256722187527,
        "lon": 129.091393799609
    },
    {
        "name": "커피빌리지",
        "sub_name": "",
        "address": "부산광역시 금정구 부산대학로63번길",
        "lat": 35.232103685788,
        "lon": 129.083855791079
    },
    {
        "name": "고향",
        "sub_name": "",
        "address": "부산광역시 금정구 온천장로125번길",
        "lat": 35.2244660336746,
        "lon": 129.082172414538
    },
    {
        "name": "이솝페이블",
        "sub_name": "",
        "address": "부산광역시 금정구 금정로60번길",
        "lat": 35.2295865267446,
        "lon": 129.087128935343
    },
    {
        "name": "베네",
        "sub_name": "",
        "address": "부산광역시 금정구 부산대학로63번길",
        "lat": 35.232103685788,
        "lon": 129.083855791079
    },
    {
        "name": "모란",
        "sub_name": "",
        "address": "부산광역시 금정구 동현로",
        "lat": 35.2235175825291,
        "lon": 129.090431255936
    },
    {
        "name": "카페드팽",
        "sub_name": "",
        "address": "부산광역시 금정구 금강로",
        "lat": 35.2302610579591,
        "lon": 129.084281690938
    },
    {
        "name": "캣츠",
        "sub_name": "",
        "address": "부산광역시 금정구 부산대학로63번길",
        "lat": 35.232103685788,
        "lon": 129.083855791079
    },
    {
        "name": "노스커피센터",
        "sub_name": "",
        "address": "부산광역시 금정구 금정로",
        "lat": 35.2330006657306,
        "lon": 129.087361244262
    },
    {
        "name": "캐릭터카페티니위니카페부산대엔씨점",
        "sub_name": "",
        "address": "부산광역시 금정구 부산대학로63번길",
        "lat": 35.232103685788,
        "lon": 129.083855791079
    },
    {
        "name": "쎄봉",
        "sub_name": "",
        "address": "부산광역시 금정구 중앙대로1660번길",
        "lat": 35.2323415114896,
        "lon": 129.092493814201
    },
    {
        "name": "스타벅스",
        "sub_name": "부산온천장역점",
        "address": "부산광역시 동래구 중앙대로",
        "lat": 35.2213075406717,
        "lon": 129.08560153654
    },
    {
        "name": "맘사랑카페",
        "sub_name": "",
        "address": "부산광역시 금정구 금강로",
        "lat": 35.2286146388292,
        "lon": 129.081919910283
    },
    {
        "name": "이삭토스트",
        "sub_name": "부산대점",
        "address": "부산광역시 금정구 부산대학로",
        "lat": 35.231413603351,
        "lon": 129.084417869164
    },
    {
        "name": "달콤한고양이",
        "sub_name": "",
        "address": "부산광역시 금정구 장전온천천로",
        "lat": 35.2321410302128,
        "lon": 129.088733983869
    },
    {
        "name": "카페카라멜",
        "sub_name": "",
        "address": "부산광역시 동래구 중앙대로1493번길",
        "lat": 35.2194254335949,
        "lon": 129.083390639588
    },
    {
        "name": "커피앤코이",
        "sub_name": "",
        "address": "부산광역시 금정구 부곡온천천로",
        "lat": 35.2384695247928,
        "lon": 129.08864276524
    },
    {
        "name": "모모스",
        "sub_name": "",
        "address": "부산광역시 금정구 오시게로",
        "lat": 35.2185742211503,
        "lon": 129.085839738396
    },
    {
        "name": "백조",
        "sub_name": "",
        "address": "부산광역시 금정구 금강로",
        "lat": 35.2355964852848,
        "lon": 129.086374163559
    },
    {
        "name": "체리",
        "sub_name": "",
        "address": "부산광역시 금정구 부산대학로63번길",
        "lat": 35.232103685788,
        "lon": 129.083855791079
    },
    {
        "name": "노스커피북문",
        "sub_name": "",
        "address": "부산광역시 금정구 부산대학로64번길",
        "lat": 35.2332302343157,
        "lon": 129.084881483268
    },
    {
        "name": "송간조",
        "sub_name": "",
        "address": "부산광역시 금정구 식물원로",
        "lat": 35.2256372239439,
        "lon": 129.080221661733
    },
    {
        "name": "바리스타커피하우스",
        "sub_name": "",
        "address": "부산광역시 금정구 중앙대로1685번길",
        "lat": 35.2351791268191,
        "lon": 129.090686178827
    },
    {
        "name": "더카페",
        "sub_name": "부산대킴스점",
        "address": "부산광역시 금정구 부산대학로63번길",
        "lat": 35.232103685788,
        "lon": 129.083855791079
    },
    {
        "name": "Cafeon",
        "sub_name": "",
        "address": "부산광역시 금정구 금정로91번길",
        "lat": 35.2330472696071,
        "lon": 129.086186372343
    },
    {
        "name": "스타벅스",
        "sub_name": "부산대역점",
        "address": "부산광역시 금정구 장전로12번길",
        "lat": 35.2305273611084,
        "lon": 129.088756366931
    },
    {
        "name": "공차",
        "sub_name": "NC백화점부산대점",
        "address": "부산광역시 금정구 부산대학로63번길",
        "lat": 35.232103685788,
        "lon": 129.083855791079
    },
    {
        "name": "이디야커피",
        "sub_name": "부산온천장역점",
        "address": "부산광역시 동래구 온천장로119번길",
        "lat": 35.2213277750093,
        "lon": 129.084349590602
    },
    {
        "name": "산뽀",
        "sub_name": "",
        "address": "부산광역시 금정구 부산대학로64번안길",
        "lat": 35.2359206026603,
        "lon": 129.085411689793
    },
    {
        "name": "유실물보관소",
        "sub_name": "",
        "address": "부산광역시 금정구 동부곡로5번길",
        "lat": 35.2295169692006,
        "lon": 129.092851423537
    },
    {
        "name": "노스",
        "sub_name": "본점",
        "address": "부산광역시 금정구 수림로85번길",
        "lat": 35.2375537567668,
        "lon": 129.083214167623
    },
    {
        "name": "설빙",
        "sub_name": "온천점",
        "address": "부산광역시 동래구 금강공원로20번길",
        "lat": 35.2211008195001,
        "lon": 129.083522747987
    },
    {
        "name": "해야커피",
        "sub_name": "",
        "address": "부산광역시 금정구 수림로",
        "lat": 35.2398333421238,
        "lon": 129.086331780801
    },
    {
        "name": "스타벅스",
        "sub_name": "부산대정문점",
        "address": "부산광역시 금정구 부산대학로64번길",
        "lat": 35.2321242300263,
        "lon": 129.084581127286
    },
    {
        "name": "Zari",
        "sub_name": "",
        "address": "부산광역시 금정구 장전온천천로73번길",
        "lat": 35.2317292119316,
        "lon": 129.088420880828
    },
    {
        "name": "컴포즈커피",
        "sub_name": "",
        "address": "부산광역시 금정구 금강로",
        "lat": 35.2300523428863,
        "lon": 129.085443379261
    },
    {
        "name": "아마스빈",
        "sub_name": "",
        "address": "부산광역시 금정구 중앙대로1719번길",
        "lat": 35.2377187042518,
        "lon": 129.088940355681
    },
    {
        "name": "카페페르마타",
        "sub_name": "",
        "address": "부산광역시 금정구 가마실로",
        "lat": 35.2249613043213,
        "lon": 129.091263447271
    },
    {
        "name": "이디야커피",
        "sub_name": "금정세무서점",
        "address": "부산광역시 금정구 부곡로141번길",
        "lat": 35.2284990373531,
        "lon": 129.091783184117
    },
    {
        "name": "화양연화",
        "sub_name": "",
        "address": "부산광역시 금정구 금강로",
        "lat": 35.2348432624975,
        "lon": 129.085935660019
    },
    {
        "name": "카페이레",
        "sub_name": "",
        "address": "부산광역시 금정구 금정로",
        "lat": 35.2317645073583,
        "lon": 129.086498846059
    },
    {
        "name": "아마스빈부산대1호점",
        "sub_name": "부산대1호점",
        "address": "부산광역시 금정구 부산대학로63번길",
        "lat": 35.2311269676073,
        "lon": 129.084216312742
    },
    {
        "name": "원두커피볶는집",
        "sub_name": "",
        "address": "부산광역시 금정구 금정로",
        "lat": 35.2273907347099,
        "lon": 129.085726499992
    },
    {
        "name": "티니위니카페",
        "sub_name": "부산대점",
        "address": "부산광역시 금정구 부산대학로63번길",
        "lat": 35.232103685788,
        "lon": 129.083855791079
    },
    {
        "name": "커피어웨이크",
        "sub_name": "",
        "address": "부산광역시 금정구 부산대학로63번길",
        "lat": 35.2298320872955,
        "lon": 129.083869520141
    },
    {
        "name": "할리스커피",
        "sub_name": "부산대점",
        "address": "부산광역시 금정구 부산대학로63번길",
        "lat": 35.232103685788,
        "lon": 129.083855791079
    },
    {
        "name": "코페아커피",
        "sub_name": "부산대점",
        "address": "부산광역시 금정구 부산대학로",
        "lat": 35.2312962944497,
        "lon": 129.085437977213
    },
    {
        "name": "빈스에스프레소",
        "sub_name": "부산대점",
        "address": "부산광역시 금정구 금정로",
        "lat": 35.2299678789269,
        "lon": 129.085815761575
    },
    {
        "name": "데일리카페",
        "sub_name": "",
        "address": "부산광역시 동래구 온천장로107번길",
        "lat": 35.2201605456243,
        "lon": 129.083839776313
    },
    {
        "name": "토즈모임센터부산대점",
        "sub_name": "부산대점",
        "address": "부산광역시 금정구 금정로",
        "lat": 35.2310002015706,
        "lon": 129.086290913862
    },
    {
        "name": "두커피로스터스",
        "sub_name": "",
        "address": "부산광역시 금정구 금강로321번길",
        "lat": 35.2370424897485,
        "lon": 129.082932708303
    },
    {
        "name": "체스",
        "sub_name": "",
        "address": "부산광역시 금정구 금강로",
        "lat": 35.2304781503195,
        "lon": 129.084196694801
    },
    {
        "name": "CICI",
        "sub_name": "",
        "address": "부산광역시 금정구 금정로",
        "lat": 35.2303307962053,
        "lon": 129.086556629525
    },
    {
        "name": "모모스커피",
        "sub_name": "",
        "address": "부산광역시 금정구 오시게로",
        "lat": 35.2192184081674,
        "lon": 129.086375553135
    }
]